latitude, longitude, altitude, quaternion, rollrate, pitchrate, yawrate, timeStamp
0.0, 0.0, -17000, [0.6876049041748047, -0.003735949285328388, 0.021516703069210052, -0.7257566452026367], -9.26658394746e-05, -0.000655162148178, -0.000333098345436, 1490242578.17
0.0, 0.0, -17000, [0.687605082988739, -0.0037377949338406324, 0.02151409164071083, -0.7257565259933472], -0.000194848849787, -0.000203864183277, -0.000429386389442, 1490242578.2
0.0, 0.0, -17000, [0.6876033544540405, -0.003743622684851289, 0.0215187706053257, -0.7257579565048218], -0.000130586180603, -0.000776345841587, 0.000192162930034, 1490242578.21
0.0, 0.0, -17000, [0.6876094341278076, -0.0037446683272719383, 0.021516738459467888, -0.7257522940635681], -0.000262434477918, 0.000190483871847, 0.0020489085, 1490242578.22
0.0, 0.0, -17000, [0.6876114010810852, -0.0037427349016070366, 0.021517658606171608, -0.7257503867149353], 0.000221098656766, 0.000732155283913, -0.00023764395155, 1490242578.24
0.0, 0.0, -17000, [0.6876105666160583, -0.0037412114907056093, 0.021513162180781364, -0.7257512807846069], -9.28677036427e-06, -0.000456718262285, 7.3112314567e-06, 1490242578.24
0.0, 0.0, -17000, [0.6876111626625061, -0.00373539119027555, 0.02151496522128582, -0.725750744342804], 0.000527202384546, 0.000295483972877, 7.74862710387e-05, 1490242578.25
0.0, 0.0, -17000, [0.6876094937324524, -0.003737091552466154, 0.02151697315275669, -0.7257522344589233], -0.000608586997259, -0.000424895435572, -0.000568927323911, 1490242578.31
0.0, 0.0, -17000, [0.6876107454299927, -0.0037372526712715626, 0.02151479572057724, -0.7257511615753174], 0.000917283236049, -0.000796299427748, 0.000483401003294, 1490242578.31
0.0, 0.0, -17000, [0.6876121163368225, -0.0037419528234750032, 0.021510524675250053, -0.7257499098777771], -0.000942511949688, -0.000764906406403, -0.000391608569771, 1490242578.31
0.0, 0.0, -17000, [0.6876142024993896, -0.0037474220152944326, 0.021516328677535057, -0.7257477641105652], -0.000367388769519, 0.00025428365916, 0.000556449987926, 1490242578.31
0.0, 0.0, -17000, [0.6876145005226135, -0.0037499601021409035, 0.021518616005778313, -0.7257473468780518], -0.0011545130983, -0.000231340993196, -0.000380980083719, 1490242578.37
0.0, 0.0, -17000, [0.6876146793365479, -0.003753392258659005, 0.021519100293517113, -0.7257471680641174], -9.70957917161e-05, -0.00118017895147, -0.00024764216505, 1490242578.39
0.0, 0.0, -17000, [0.6876147389411926, -0.003756711957976222, 0.0215135645121336, -0.725747287273407], -0.000129931402626, -0.000263124704361, 0.000227149692364, 1490242578.39
0.0, 0.0, -17000, [0.6876163482666016, -0.0037605678662657738, 0.02151014655828476, -0.7257457971572876], -0.000583444314543, -0.000808258540928, 0.000591374584474, 1490242578.39
0.0, 0.0, -17000, [0.6876183152198792, -0.0037629548460245132, 0.02150479145348072, -0.7257441878318787], 0.000970500055701, -0.000759172253311, -0.000256868777797, 1490242578.39
0.0, 0.0, -17000, [0.6876171231269836, -0.003759639337658882, 0.021489836275577545, -0.725745677947998], 0.00235026353039, -0.000538526102901, -0.000149480882101, 1490242578.39
0.0, 0.0, -17000, [0.6876167058944702, -0.0037555107846856117, 0.021487746387720108, -0.725746214389801], 0.000430955435149, 9.37283039093e-05, -0.000252402387559, 1490242578.41
0.0, 0.0, -17000, [0.6876181364059448, -0.003760357853025198, 0.02148677408695221, -0.7257448434829712], -0.000738930539228, -0.000540629029274, -0.00036683480721, 1490242578.42
0.0, 0.0, -17000, [0.6876201033592224, -0.0037615355104207993, 0.02148490399122238, -0.7257430553436279], 0.000292469048873, 0.000274405116215, 0.000283874222077, 1490242578.43
0.0, 0.0, -17000, [0.687620222568512, -0.0037642645183950663, 0.021486390382051468, -0.7257428765296936], -0.000396029441617, -0.000529614277184, -0.00055669399444, 1490242578.44
0.0, 0.0, -17000, [0.6876221299171448, -0.003762508975341916, 0.02149115689098835, -0.7257409691810608], -9.59167664405e-05, 0.00062976568006, -0.000260782195255, 1490242578.45
0.0, 0.0, -17000, [0.6876270174980164, -0.0037618821952492, 0.02149137109518051, -0.7257362604141235], 0.000363275175914, -0.000799392815679, 0.000762295443565, 1490242578.47
0.0, 0.0, -17000, [0.687630295753479, -0.0037595932371914387, 0.021487994119524956, -0.72573322057724], 0.000423931545811, -0.000652883667499, -7.92365754023e-05, 1490242578.48
0.0, 0.0, -17000, [0.6876314878463745, -0.003756120568141341, 0.02148965187370777, -0.725732147693634], 0.000412964174757, 0.00083830836229, -6.01238571107e-06, 1490242578.49
0.0, 0.0, -17000, [0.6876313090324402, -0.0037533969152718782, 0.021484794095158577, -0.7257324457168579], 0.000478008412756, 1.39628536999e-05, -0.000786857155617, 1490242578.52
0.0, 0.0, -17000, [0.6876333355903625, -0.003750199917703867, 0.02148771844804287, -0.7257304191589355], -2.8446840588e-05, 0.000405872473493, 0.000259463558905, 1490242578.52
0.0, 0.0, -17000, [0.6876346468925476, -0.003749639028683305, 0.02148662693798542, -0.72572922706604], -0.000155357614858, -0.00146225327626, 0.000601010862738, 1490242578.53
0.0, 0.0, -17000, [0.6876386404037476, -0.0037486606743186712, 0.021481724455952644, -0.7257255911827087], 0.000891010742635, 0.000154800713062, 0.000850961427204, 1490242578.55
0.0, 0.0, -17000, [0.6876395344734192, -0.003748270682990551, 0.021487053483724594, -0.7257245779037476], -0.00152589927893, 0.000259638298303, 0.000370790017769, 1490242578.56
0.0, 0.0, -17000, [0.6876411437988281, -0.003751658834517002, 0.021493330597877502, -0.7257228493690491], -0.000144842284499, -0.000780594069511, 0.000409982632846, 1490242578.57
0.0, 0.0, -17000, [0.6876460313796997, -0.003753043245524168, 0.021493082866072655, -0.7257182002067566], 0.000122842990095, -0.00137850036845, -0.000352115137503, 1490242578.59
0.0, 0.0, -17000, [0.6876490712165833, -0.0037549203261733055, 0.02149474434554577, -0.7257153391838074], -0.00109442102257, 0.000270764576271, 0.000293998047709, 1490242578.59
0.0, 0.0, -17000, [0.6876493692398071, -0.0037560274358838797, 0.021495992317795753, -0.7257150411605835], -0.000730837869924, -0.000736587215215, -0.000381516176276, 1490242578.62
0.0, 0.0, -17000, [0.6876488327980042, -0.0037594162859022617, 0.02149524725973606, -0.7257155179977417], -0.000205776857911, -0.000748693943024, -0.000234507955611, 1490242578.63
0.0, 0.0, -17000, [0.6876499056816101, -0.003763180924579501, 0.02148851566016674, -0.7257146239280701], 0.00180049939081, -0.00077848508954, 0.000129928230308, 1490242578.64
0.0, 0.0, -17000, [0.6876484155654907, -0.0037658337969332933, 0.02148716151714325, -0.7257161140441895], -0.000810959842056, -0.00138072809204, -0.000632777577266, 1490242578.66
0.0, 0.0, -17000, [0.6876532435417175, -0.0037709148600697517, 0.021486537531018257, -0.7257115840911865], -0.000582548847888, -0.000909274443984, 0.000589180737734, 1490242578.67
0.0, 0.0, -17000, [0.6876556277275085, -0.003773199627175927, 0.021486526355147362, -0.7257091999053955], -0.000124104582937, 0.000283606350422, 0.000152097549289, 1490242578.68
0.0, 0.0, -17000, [0.687658429145813, -0.0037812066730111837, 0.021486785262823105, -0.7257065176963806], -0.0011735574808, -0.00108836824074, -0.000104154110886, 1490242578.69
0.0, 0.0, -17000, [0.6876617074012756, -0.003786327550187707, 0.021485095843672752, -0.7257034182548523], -0.000159608054673, -0.000786908436567, 0.000620039761998, 1490242578.7
0.0, 0.0, -17000, [0.6876646280288696, -0.0037844148464500904, 0.021482452750205994, -0.7257007360458374], 0.000889650720637, 0.000588549301028, 0.000874224933796, 1490242578.72
0.0, 0.0, -17000, [0.6876668930053711, -0.0037792313378304243, 0.021478239446878433, -0.7256987690925598], 0.000470315135317, -0.000693320762366, 0.00077979604248, 1490242578.73
0.0, 0.0, -17000, [0.6876652836799622, -0.0037831857334822416, 0.021483665332198143, -0.7257001399993896], -0.00121506676078, -7.53123313189e-05, -0.00101805536542, 1490242578.74
0.0, 0.0, -17000, [0.6876676678657532, -0.0037829072680324316, 0.02147532068192959, -0.7256981134414673], 0.00199410994537, -0.000870706047863, 0.000342298182659, 1490242578.75
0.0, 0.0, -17000, [0.6876686811447144, -0.0037762585561722517, 0.021473264321684837, -0.7256972789764404], 0.000728185579646, 0.000373176299036, -0.00128310569562, 1490242578.77
0.0, 0.0, -17000, [0.6876693964004517, -0.0037782173603773117, 0.021470267325639725, -0.7256966233253479], -0.000111838773591, -0.00108133209869, -2.84771667793e-05, 1490242578.78
0.0, 0.0, -17000, [0.6876742839813232, -0.003784414380788803, 0.02146809920668602, -0.725692093372345], -2.8998212656e-05, -0.000783889554441, 0.000316154910251, 1490242578.79
0.0, 0.0, -17000, [0.6876778602600098, -0.00378127652220428, 0.021471405401825905, -0.7256885170936584], -0.000811780220829, -5.30267134309e-05, 0.000725096906535, 1490242578.8
0.0, 0.0, -17000, [0.687679648399353, -0.0037838269490748644, 0.021472712978720665, -0.7256868481636047], -4.96115826536e-05, 3.81544232368e-05, -0.000926459091716, 1490242578.83
0.0, 0.0, -17000, [0.6876769661903381, -0.00379149429500103, 0.02147248573601246, -0.7256894111633301], -0.00086963782087, -0.00164298992604, -0.00139579328243, 1490242578.84
0.0, 0.0, -17000, [0.68767911195755, -0.0037900367751717567, 0.021470850333571434, -0.7256873250007629], 0.000492239603773, -0.000762216281146, 0.00045164860785, 1490242578.85
0.0, 0.0, -17000, [0.6876851916313171, -0.003784534055739641, 0.021463949233293533, -0.7256817817687988], -0.000359527184628, 0.0002969824709, 0.000442270189524, 1490242578.86
0.0, 0.0, -17000, [0.6876900792121887, -0.0037813491653651, 0.021462295204401016, -0.7256773114204407], 0.000960951438174, -0.000619567465037, -0.00015018042177, 1490242578.87
0.0, 0.0, -17000, [0.6876896619796753, -0.0037762783467769623, 0.021458575502038002, -0.7256778478622437], 0.000549541320652, -0.000291953794658, -0.000376476673409, 1490242578.89
0.0, 0.0, -17000, [0.6876897811889648, -0.003778488142415881, 0.02146211639046669, -0.7256775498390198], -0.00200611073524, 0.000233337283134, -0.000421253964305, 1490242578.9
0.0, 0.0, -17000, [0.6876888871192932, -0.0037871897220611572, 0.021467139944434166, -0.7256782650947571], -0.00158029259183, 1.25276856124e-05, -0.000401136465371, 1490242578.91
0.0, 0.0, -17000, [0.6876934766769409, -0.0037878905422985554, 0.021464388817548752, -0.725674033164978], 0.000770582177211, 4.98346053064e-05, 0.00105148972943, 1490242578.92
0.0, 0.0, -17000, [0.6876949071884155, -0.003792308969423175, 0.02146688476204872, -0.7256725430488586], -0.00115292146802, -0.000426350627095, -0.000389201566577, 1490242578.94
0.0, 0.0, -17000, [0.6876955032348633, -0.0037990568671375513, 0.021466411650180817, -0.7256718873977661], -8.91320814844e-05, -0.000957754440606, -0.000339156482369, 1490242578.96
0.0, 0.0, -17000, [0.687699556350708, -0.003807011991739273, 0.02146558277308941, -0.7256680727005005], -0.000947083695792, -0.000175499357283, 0.00112854118925, 1490242578.97
0.0, 0.0, -17000, [0.6877040863037109, -0.0038041502702981234, 0.021467048674821854, -0.7256637215614319], 0.000998136936687, -4.45311889052e-05, 0.000850571203046, 1490242578.98
0.0, 0.0, -17000, [0.6877061128616333, -0.003807513974606991, 0.02146880142390728, -0.7256617546081543], -0.000773819163442, -0.000548135489225, 0.000266434974037, 1490242578.99
0.0, 0.0, -17000, [0.6877084970474243, -0.003812065115198493, 0.0214682724326849, -0.7256594896316528], 0.000705352053046, -0.000665794126689, 0.000476155779324, 1490242579.0
0.0, 0.0, -17000, [0.687711775302887, -0.0038099109660834074, 0.02146691270172596, -0.7256564497947693], 0.000401393772336, -0.000126500148326, 0.000271222554147, 1490242579.01
0.0, 0.0, -17000, [0.6877119541168213, -0.003805760061368346, 0.02146589383482933, -0.7256563305854797], 0.00142058089841, 0.000464812386781, -0.000592861149926, 1490242579.03
0.0, 0.0, -17000, [0.6877166032791138, -0.0038130139000713825, 0.02146453969180584, -0.7256518602371216], -0.00126466981601, -0.00102784857154, 0.0011717164889, 1490242579.04
0.0, 0.0, -17000, [0.6877184510231018, -0.003817325923591852, 0.021465273573994637, -0.7256501317024231], -0.000924346735701, -0.000408658757806, -0.000584569061175, 1490242579.06
0.0, 0.0, -17000, [0.6877189874649048, -0.003821983002126217, 0.021469609811902046, -0.7256494760513306], 0.000283081986709, -0.000442799646407, 0.000452850828879, 1490242579.07
0.0, 0.0, -17000, [0.6877199411392212, -0.003819303819909692, 0.021467087790369987, -0.7256487011909485], 0.000876600097399, -0.000707065686584, -0.000480269955005, 1490242579.08
0.0, 0.0, -17000, [0.6877220869064331, -0.0038147931918501854, 0.021469024941325188, -0.7256466150283813], 0.000798678665888, 0.000830689910799, 0.000660210847855, 1490242579.1
0.0, 0.0, -17000, [0.6877225637435913, -0.0038077051285654306, 0.0214679092168808, -0.7256461381912231], 0.000928073481191, 0.000309476396069, 0.000336133525707, 1490242579.11
0.0, 0.0, -17000, [0.6877208948135376, -0.0038041463121771812, 0.02146918885409832, -0.7256477475166321], 0.000712214503437, 0.000807106494904, -0.00105547974817, 1490242579.12
0.0, 0.0, -17000, [0.6877200603485107, -0.0038005257956683636, 0.0214693583548069, -0.7256485223770142], 0.000684815342538, -0.000259418971837, -0.000786103424616, 1490242579.13
0.0, 0.0, -17000, [0.6877182126045227, -0.0037972249556332827, 0.021466819569468498, -0.725650429725647], -4.19712450821e-05, 0.000270596472546, -0.00102790119126, 1490242579.15
0.0, 0.0, -17000, [0.6877169609069824, -0.00379816978238523, 0.021471170708537102, -0.7256514430046082], -0.000308796530589, 3.57385724783e-05, -0.000315116718411, 1490242579.17
0.0, 0.0, -17000, [0.6877186894416809, -0.003800786565989256, 0.021477628499269485, -0.7256496548652649], -0.00117241591215, 0.000349806156009, -0.000165248522535, 1490242579.17
0.0, 0.0, -17000, [0.6877209544181824, -0.003802908817306161, 0.021478964015841484, -0.7256474494934082], -0.000279056490399, -0.000655211973935, 0.00071907590609, 1490242579.19
0.0, 0.0, -17000, [0.6877223253250122, -0.003802925581112504, 0.021474245935678482, -0.7256462574005127], 0.00169655377977, -0.000508949160576, 1.37418974191e-05, 1490242579.2
0.0, 0.0, -17000, [0.6877228617668152, -0.003795478492975235, 0.021471265703439713, -0.7256458401679993], 0.000784294388723, 0.000370224937797, -0.000651200825814, 1490242579.21
0.0, 0.0, -17000, [0.6877246499061584, -0.0037920738104730844, 0.021463638171553612, -0.7256444096565247], 0.0019660347607, -0.00171310873702, 0.000719894771464, 1490242579.26
0.0, 0.0, -17000, [0.6877261996269226, -0.0037947476375848055, 0.021461086347699165, -0.72564297914505], -0.000163857534062, 0.000199034810066, 0.000664579099976, 1490242579.28
0.0, 0.0, -17000, [0.6877272129058838, -0.0037930237594991922, 0.021456660702824593, -0.7256421446800232], -4.65214834549e-05, -0.000743251293898, 0.000505100702867, 1490242579.28
0.0, 0.0, -17000, [0.6877298355102539, -0.0037926293443888426, 0.02145514078438282, -0.7256397008895874], -0.00109028583393, 0.00013384828344, 0.000161117757671, 1490242579.29
0.0, 0.0, -17000, [0.6877304315567017, -0.0037951490376144648, 0.021454716101288795, -0.7256392240524292], -0.000882251013536, -0.000516219064593, 0.000252348952927, 1490242579.29
0.0, 0.0, -17000, [0.6877299547195435, -0.0037949560210108757, 0.02145298197865486, -0.7256396412849426], -0.000172769548954, -0.000128119718283, -0.000752169115003, 1490242579.29
0.0, 0.0, -17000, [0.6877297759056091, -0.0037903296761214733, 0.021450581029057503, -0.7256399393081665], 0.0012712237658, 0.00048402720131, -8.03369330242e-05, 1490242579.31
0.0, 0.0, -17000, [0.6877328157424927, -0.0037911073304712772, 0.021452469751238823, -0.7256370186805725], -0.000267966010142, -2.13584862649e-05, 0.000649571302347, 1490242579.32
0.0, 0.0, -17000, [0.6877350211143494, -0.003786151995882392, 0.02145056426525116, -0.7256349921226501], 0.00153320690151, -7.24662095308e-06, 0.000876858248375, 1490242579.33
0.0, 0.0, -17000, [0.6877385377883911, -0.0037790394853800535, 0.02144733816385269, -0.7256317734718323], 0.000598988146521, 0.000312034972012, 0.000509699108079, 1490242579.34
0.0, 0.0, -17000, [0.6877368688583374, -0.00378048000857234, 0.02144855074584484, -0.7256333231925964], -0.000101423618617, -0.000589114613831, -0.000232511898503, 1490242579.36
0.0, 0.0, -17000, [0.6877400875091553, -0.0037802348379045725, 0.021448789164423943, -0.7256302237510681], -0.000667740707286, -0.000411445274949, 0.000161605072208, 1490242579.38
0.0, 0.0, -17000, [0.6877377033233643, -0.0037772003561258316, 0.021445171907544136, -0.7256326675415039], 0.00135390157811, -0.000223744660616, -0.0011742003262, 1490242579.39
0.0, 0.0, -17000, [0.6877341270446777, -0.0037702717818319798, 0.02144669182598591, -0.7256360650062561], -0.000171646854142, 0.000378706492484, -0.00071478303289, 1490242579.41
0.0, 0.0, -17000, [0.6877323985099792, -0.003777916543185711, 0.02145150490105152, -0.7256374359130859], -0.00189575389959, -0.000709852669388, -0.000464294978883, 1490242579.41
0.0, 0.0, -17000, [0.6877326965332031, -0.0037798641715198755, 0.021454261615872383, -0.7256370782852173], -0.000103896512883, 0.000763793708757, -0.000152513035573, 1490242579.42
0.0, 0.0, -17000, [0.6877335906028748, -0.0037806679029017687, 0.021456273272633553, -0.7256362438201904], -0.000978655181825, -0.000763833057135, -0.00136406195816, 1490242579.45
0.0, 0.0, -17000, [0.687731921672821, -0.0037861436139792204, 0.021451668813824654, -0.7256379127502441], -9.27246292122e-05, -0.000695172697306, -0.000340308528394, 1490242579.45
0.0, 0.0, -17000, [0.6877300143241882, -0.003784702392295003, 0.021453555673360825, -0.7256396412849426], -2.56630883086e-05, 0.000214862171561, 0.000251557910815, 1490242579.47
0.0, 0.0, -17000, [0.6877326965332031, -0.0037848378997296095, 0.02144734002649784, -0.7256373167037964], 0.000551641802303, 0.000293993623927, 0.00104715535417, 1490242579.48
0.0, 0.0, -17000, [0.6877347826957703, -0.0037871745880693197, 0.021443553268909454, -0.7256354689598083], 6.40534854028e-05, -0.000904912129045, 1.80375063792e-05, 1490242579.48
0.0, 0.0, -17000, [0.6877368688583374, -0.0037913259584456682, 0.02143995091319084, -0.7256335616111755], -0.000446038990049, -0.000410955399275, 0.000182300223969, 1490242579.51
0.0, 0.0, -17000, [0.6877385377883911, -0.003789922222495079, 0.021443087607622147, -0.725631833076477], -0.00105162290856, -0.000170872546732, -0.000379704753868, 1490242579.52
0.0, 0.0, -17000, [0.687741219997406, -0.0037899098824709654, 0.021444007754325867, -0.7256293296813965], -0.000171101171873, 0.000103327445686, 0.000762574141845, 1490242579.54
0.0, 0.0, -17000, [0.6877431273460388, -0.003785213455557823, 0.021444739773869514, -0.7256274819374084], 0.00040771390195, 0.000334655866027, 7.4120471254e-05, 1490242579.55
0.0, 0.0, -17000, [0.6877449750900269, -0.003781082108616829, 0.021444661542773247, -0.72562575340271], 0.000307384878397, -0.000589901115745, -9.70350811258e-05, 1490242579.56
0.0, 0.0, -17000, [0.6877470016479492, -0.0037849931977689266, 0.02144821546971798, -0.7256237268447876], -0.000579511630349, -0.000289767049253, 0.000272089848295, 1490242579.57
0.0, 0.0, -17000, [0.6877461075782776, -0.0037842027377337217, 0.02144438400864601, -0.725624680519104], -1.87388504855e-05, 9.75341536105e-05, -0.00135954900179, 1490242579.58
0.0, 0.0, -17000, [0.6877477765083313, -0.003783498890697956, 0.02144632115960121, -0.7256230115890503], -0.000271978438832, 0.00114273745567, 0.000818101805635, 1490242579.59
0.0, 0.0, -17000, [0.6877520084381104, -0.003787672845646739, 0.02144588902592659, -0.7256190180778503], -0.00122320605442, -0.00112133752555, 0.000653289025649, 1490242579.61
0.0, 0.0, -17000, [0.6877571940422058, -0.003793308511376381, 0.021448710933327675, -0.7256140112876892], -0.00105200556573, -0.000699026975781, 0.00120701885317, 1490242579.62
0.0, 0.0, -17000, [0.6877589821815491, -0.0037927483208477497, 0.021453548222780228, -0.725612223148346], 0.000648644636385, 0.000429659383371, -0.000208680983633, 1490242579.63
0.0, 0.0, -17000, [0.6877628564834595, -0.0037909471429884434, 0.021452592685818672, -0.7256084680557251], -0.000273088604445, -0.00024256715551, 0.000750723411329, 1490242579.65
0.0, 0.0, -17000, [0.6877634525299072, -0.00379893253557384, 0.021457433700561523, -0.7256077527999878], -0.000939025660045, -0.000715438276529, -0.000390839530155, 1490242579.66
0.0, 0.0, -17000, [0.6877673864364624, -0.0038000834174454212, 0.021457135677337646, -0.7256040573120117], -0.000182259842404, -0.000245888251811, 0.000969151849858, 1490242579.68
0.0, 0.0, -17000, [0.6877703666687012, -0.0038020003121346235, 0.021457284688949585, -0.7256012558937073], -0.000775151769631, -2.15135514736e-07, 0.000297561986372, 1490242579.68
0.0, 0.0, -17000, [0.6877769827842712, -0.0038055558688938618, 0.021455932408571243, -0.7255949974060059], -0.00041302232421, -0.000614763703197, 0.00126626959536, 1490242579.7
0.0, 0.0, -17000, [0.6877785921096802, -0.0038086343556642532, 0.021453779190778732, -0.7255934476852417], -9.07654757611e-05, -0.00019399356097, -0.000300272949971, 1490242579.72
0.0, 0.0, -17000, [0.6877822279930115, -0.003808932611718774, 0.021447544917464256, -0.7255902886390686], 0.00010006170487, -0.000738071743399, 6.0802558437e-06, 1490242579.73
0.0, 0.0, -17000, [0.687781035900116, -0.0038114343769848347, 0.021442441269755363, -0.7255914807319641], 0.000903986918274, -0.000694405753165, -0.000789730343968, 1490242579.74
0.0, 0.0, -17000, [0.687777578830719, -0.0038093067705631256, 0.021437272429466248, -0.7255949974060059], 0.00100878672674, 0.000140440184623, -0.000738842587452, 1490242579.75
0.0, 0.0, -17000, [0.6877814531326294, -0.0038053514435887337, 0.021433789283037186, -0.7255914211273193], 0.000835411716253, -8.35186801851e-05, 0.00169513421133, 1490242579.76
0.0, 0.0, -17000, [0.6877864599227905, -0.003808611771091819, 0.021432777866721153, -0.7255866527557373], -0.00122361280955, -0.000797843560576, 0.000665518455207, 1490242579.79
0.0, 0.0, -17000, [0.6877898573875427, -0.003810400841757655, 0.0214296355843544, -0.725583553314209], 0.000793643586803, -0.000391055829823, 0.00083771313075, 1490242579.79
0.0, 0.0, -17000, [0.6877925992012024, -0.0038110483437776566, 0.021427441388368607, -0.7255809903144836], 0.000582089298405, -0.000268193427473, 0.000820317771286, 1490242579.8
0.0, 0.0, -17000, [0.6877936720848083, -0.003818532917648554, 0.021424831822514534, -0.7255800366401672], -0.000655060168356, -0.000389299821109, -0.00129682151601, 1490242579.82
0.0, 0.0, -17000, [0.6877943873405457, -0.0038239622954279184, 0.021428870037198067, -0.7255791425704956], -0.000451601750683, -0.000661254860461, 0.000303061446175, 1490242579.83
0.0, 0.0, -17000, [0.6877962946891785, -0.0038289562799036503, 0.021430695429444313, -0.7255772948265076], -0.00108208903112, 8.16071406007e-05, 0.000188008416444, 1490242579.85
0.0, 0.0, -17000, [0.6878023147583008, -0.003831287147477269, 0.021426428109407425, -0.7255716323852539], 0.000513863633387, -0.000848839525133, 0.0017504930729, 1490242579.86
0.0, 0.0, -17000, [0.687803328037262, -0.0038298803847283125, 0.02142218127846718, -0.7255709171295166], 0.000342727667885, -0.000221078284085, -0.000361677841283, 1490242579.87
0.0, 0.0, -17000, [0.6878014802932739, -0.0038264794275164604, 0.021419528871774673, -0.7255727052688599], 0.00045105337631, 0.000705258222297, -0.000293901655823, 1490242579.88
0.0, 0.0, -17000, [0.6878037452697754, -0.0038238936103880405, 0.02142264135181904, -0.7255704402923584], -0.00040354259545, 0.00136021478102, -0.000222602626309, 1490242579.94
0.0, 0.0, -17000, [0.6878054141998291, -0.0038269050419330597, 0.02142040804028511, -0.725568950176239], 0.000130521686515, -0.00142163736746, -0.000320812803693, 1490242579.94
0.0, 0.0, -17000, [0.6878116130828857, -0.0038224777672439814, 0.02141580358147621, -0.7255632877349854], 0.00132952444255, 0.000348888337612, 0.00081218208652, 1490242579.95
0.0, 0.0, -17000, [0.6878095865249634, -0.0038266179617494345, 0.021411724388599396, -0.7255653142929077], -0.000158453898621, -0.000536014325917, -0.000826625502668, 1490242579.95
0.0, 0.0, -17000, [0.6878085732460022, -0.0038286938797682524, 0.02140827663242817, -0.7255663275718689], 0.00032156103407, -0.000299405772239, -0.00143377226777, 1490242579.96
0.0, 0.0, -17000, [0.6878067851066589, -0.0038271211087703705, 0.02140614576637745, -0.7255681157112122], 0.000741403142456, 0.000243597198278, -0.00136851181742, 1490242579.96
0.0, 0.0, -17000, [0.6878021359443665, -0.0038271737284958363, 0.021402820944786072, -0.7255725860595703], 0.000637024291791, -0.000513451173902, -0.00140986090992, 1490242579.98
0.0, 0.0, -17000, [0.6878011226654053, -0.003829137422144413, 0.021406831219792366, -0.7255734205245972], -0.00120048993267, 0.000245709670708, 0.000417164177634, 1490242580.0
0.0, 0.0, -17000, [0.6877983212471008, -0.00383088830858469, 0.021408164873719215, -0.7255759835243225], -3.89477645513e-05, 0.000298974337056, -0.000879528583027, 1490242580.01
0.0, 0.0, -17000, [0.6877966523170471, -0.0038294547703117132, 0.021408868953585625, -0.7255775332450867], 0.000883362430613, 0.000299698673189, -0.000391556997783, 1490242580.02
0.0, 0.0, -17000, [0.6878004670143127, -0.0038372818380594254, 0.02141192927956581, -0.7255738973617554], -0.00117301032878, -0.000805088318884, 4.39112773165e-05, 1490242580.04
0.0, 0.0, -17000, [0.6878029704093933, -0.003835388459265232, 0.021411683410406113, -0.7255715131759644], 0.000753804226406, 0.000661836238578, -4.34330431744e-05, 1490242580.04
0.0, 0.0, -17000, [0.6878088116645813, -0.0038303982000797987, 0.021409733220934868, -0.7255659699440002], 0.000473957625218, 0.00106568308547, 0.000905537977815, 1490242580.06
0.0, 0.0, -17000, [0.6878138780593872, -0.003829382825642824, 0.021408306434750557, -0.7255612015724182], -0.0011429914739, 0.000238070264459, -0.000308131333441, 1490242580.07
0.0, 0.0, -17000, [0.6878195405006409, -0.003831147914752364, 0.02140958420932293, -0.7255558371543884], -9.07273497432e-05, 0.000179074006155, 0.00135683745611, 1490242580.08
0.0, 0.0, -17000, [0.6878199577331543, -0.003824464976787567, 0.02140706405043602, -0.7255555987358093], 0.00103616854176, 0.00134973973036, -0.000950404093601, 1490242580.09
0.0, 0.0, -17000, [0.687824547290802, -0.0038241685833781958, 0.021409494802355766, -0.725551187992096], -0.000452903565019, -1.14259310067e-05, 0.00047746906057, 1490242580.11
0.0, 0.0, -17000, [0.6878226399421692, -0.003832609858363867, 0.021411776542663574, -0.7255528569221497], -0.00108116539195, -0.000547870993614, -0.00120884459466, 1490242580.12
0.0, 0.0, -17000, [0.6878241300582886, -0.003833098104223609, 0.0214063860476017, -0.7255515456199646], 0.000891051779035, -0.000822614412755, -0.000426580256317, 1490242580.13
0.0, 0.0, -17000, [0.6878255605697632, -0.00383965577930212, 0.021408669650554657, -0.72555011510849], -0.00157922762446, -0.000821785070002, -0.000182944815606, 1490242580.14
0.0, 0.0, -17000, [0.6878289580345154, -0.00385200884193182, 0.021410690620541573, -0.7255467772483826], -0.000578703940846, -0.0010721674189, 0.000726884813048, 1490242580.16
0.0, 0.0, -17000, [0.6878309845924377, -0.0038489692378789186, 0.021403763443231583, -0.7255450487136841], 0.000988665153272, -0.00038175471127, -0.000302320811898, 1490242580.17
0.0, 0.0, -17000, [0.687833845615387, -0.0038540083914995193, 0.021400339901447296, -0.725542426109314], -0.000997118302621, -0.000331482384354, 0.000631804810837, 1490242580.18
0.0, 0.0, -17000, [0.6878319978713989, -0.003857323667034507, 0.021402189508080482, -0.7255440950393677], 8.52176744957e-05, -0.000255044549704, -0.000980853103101, 1490242580.21
0.0, 0.0, -17000, [0.6878379583358765, -0.003857581876218319, 0.021394528448581696, -0.7255387306213379], 0.00035246819607, 0.000184421660379, 0.00108059961349, 1490242580.22
0.0, 0.0, -17000, [0.6878442168235779, -0.0038569283206015825, 0.021393651142716408, -0.7255328297615051], 0.000375761417672, -4.0914863348e-05, 0.000859808060341, 1490242580.24
0.0, 0.0, -17000, [0.6878491640090942, -0.0038636880926787853, 0.021394340321421623, -0.7255281209945679], -0.00120620999951, -0.000873050652444, 0.000592981814407, 1490242580.24
0.0, 0.0, -17000, [0.6878510117530823, -0.003868597559630871, 0.021396668627858162, -0.7255261540412903], 0.000135758251417, -0.00061730761081, -0.000256704865023, 1490242580.25
0.0, 0.0, -17000, [0.6878503561019897, -0.0038690860383212566, 0.021397769451141357, -0.725526750087738], -0.00167771219276, 0.00108240731061, -0.000296129379421, 1490242580.28
0.0, 0.0, -17000, [0.6878527998924255, -0.0038708695210516453, 0.02139461226761341, -0.7255246043205261], 0.000974506721832, -8.37254337966e-05, -6.46285479888e-05, 1490242580.29
0.0, 0.0, -17000, [0.687852144241333, -0.0038712250534445047, 0.02139141596853733, -0.7255253195762634], -0.000475271721371, -0.00165680935606, -0.000676726573147, 1490242580.31
0.0, 0.0, -17000, [0.6878514885902405, -0.003879037220031023, 0.021394873037934303, -0.7255257964134216], -0.00130139524117, 0.00014901231043, -0.000846149981953, 1490242580.31
0.0, 0.0, -17000, [0.6878498196601868, -0.003879243042320013, 0.021394550800323486, -0.7255273461341858], 0.00158958602697, 0.000405628234148, -0.00117259565741, 1490242580.34
0.0, 0.0, -17000, [0.6878514289855957, -0.0038719126023352146, 0.021390104666352272, -0.725525975227356], 0.00201274571009, 0.000114311929792, 0.000339524704032, 1490242580.34
0.0, 0.0, -17000, [0.6878517270088196, -0.0038700567092746496, 0.021383535116910934, -0.7255258560180664], -0.000396381306928, -0.000397899188101, -0.000284771551378, 1490242580.35
0.0, 0.0, -17000, [0.6878584027290344, -0.00387506908737123, 0.021374937146902084, -0.7255197763442993], -1.89309648704e-05, -0.00192913552746, 0.000414500711486, 1490242580.37
0.0, 0.0, -17000, [0.6878616809844971, -0.003876093542203307, 0.021372122690081596, -0.7255167961120605], 0.000516181637067, 0.000201774062589, 0.000459075323306, 1490242580.38
0.0, 0.0, -17000, [0.6878661513328552, -0.0038758006412535906, 0.021370703354477882, -0.7255125641822815], 0.00139578222297, -0.000844197813421, 3.81986610591e-05, 1490242580.4
0.0, 0.0, -17000, [0.687866747379303, -0.0038742683827877045, 0.021362358704209328, -0.7255122065544128], 0.00102889770642, -0.000361365266144, -0.000820052227937, 1490242580.41
0.0, 0.0, -17000, [0.6878688335418701, -0.0038709186483174562, 0.021357141435146332, -0.7255104780197144], 0.000401927856728, -0.000862280838192, 0.000497736386023, 1490242580.42
0.0, 0.0, -17000, [0.6878734230995178, -0.0038667561020702124, 0.021347053349018097, -0.7255064249038696], 0.00250428332947, -0.000883491709828, 0.000969010987319, 1490242580.44
0.0, 0.0, -17000, [0.6878802180290222, -0.003870144486427307, 0.02133759669959545, -0.725500226020813], -0.000153182569193, -0.000252175144851, 0.000812196289189, 1490242580.45
0.0, 0.0, -17000, [0.6878841519355774, -0.0038669391069561243, 0.021334782242774963, -0.7254966497421265], 0.00151152233593, 0.000455889152363, -0.000104271457531, 1490242580.46
0.0, 0.0, -17000, [0.6878871917724609, -0.003861872712150216, 0.021326323971152306, -0.7254940271377563], 0.00150479434524, -0.000825261231512, -6.03611115366e-05, 1490242580.48
0.0, 0.0, -17000, [0.687885582447052, -0.003864564700052142, 0.021320849657058716, -0.7254956960678101], 0.000701810757164, -0.000682531856, -0.000644278130494, 1490242580.49
0.0, 0.0, -17000, [0.6878824234008789, -0.003858180483803153, 0.021313516423106194, -0.7254989743232727], 0.000985080841929, -0.000815963372588, -0.000207852688618, 1490242580.5
0.0, 0.0, -17000, [0.6878824830055237, -0.003857031464576721, 0.021310148760676384, -0.7254989743232727], 2.60635279119e-05, 4.14536334574e-05, -0.000237261061557, 1490242580.52
0.0, 0.0, -17000, [0.6878870725631714, -0.0038673561066389084, 0.02130487747490406, -0.7254947423934937], -0.00117946485989, -0.00190791441128, 0.000222083064727, 1490242580.52
0.0, 0.0, -17000, [0.6878868341445923, -0.0038728653453290462, 0.021307500079274178, -0.7254948019981384], -0.000823329086415, 0.000247758813202, -0.000281803426333, 1490242580.55
0.0, 0.0, -17000, [0.6878899335861206, -0.003867026884108782, 0.021307239308953285, -0.7254918813705444], 0.000950095592998, 0.000237983418629, 0.000267158611678, 1490242580.56
0.0, 0.0, -17000, [0.6878910660743713, -0.0038740935269743204, 0.021310988813638687, -0.7254907488822937], -0.00225128908642, -0.000858467072248, 0.00030492991209, 1490242580.57
0.0, 0.0, -17000, [0.6878941059112549, -0.00388327450491488, 0.021309081465005875, -0.7254878282546997], -0.000633951683994, -0.000825245399028, -1.96404289454e-06, 1490242580.58
0.0, 0.0, -17000, [0.6878969073295593, -0.0038803676143288612, 0.021306300535798073, -0.7254853248596191], 9.60676698014e-06, 0.000252276193351, -1.32762361318e-05, 1490242580.59
0.0, 0.0, -17000, [0.6879013776779175, -0.003882701974362135, 0.02130552940070629, -0.7254810929298401], -0.000191636514501, -0.000882043037564, 0.00131451955531, 1490242580.61
0.0, 0.0, -17000, [0.6879062652587891, -0.003881086828187108, 0.021301744505763054, -0.7254765033721924], -8.54630488902e-05, -0.00079954508692, -0.000182803138159, 1490242580.62
0.0, 0.0, -17000, [0.6879075169563293, -0.0038816293235868216, 0.0213007889688015, -0.7254753708839417], -0.000395394890802, 2.45911069214e-05, -0.000257562031038, 1490242580.63
0.0, 0.0, -17000, [0.6879093647003174, -0.003884537611156702, 0.021306708455085754, -0.7254734635353088], -0.00103460997343, -0.000165289267898, -0.000321067869663, 1490242580.65
0.0, 0.0, -17000, [0.6879106163978577, -0.003884123172610998, 0.02130250260233879, -0.7254723906517029], -0.000260682863882, 0.000187918543816, 0.000827100826427, 1490242580.66
0.0, 0.0, -17000, [0.6879118084907532, -0.0038845930248498917, 0.021299315616488457, -0.7254713177680969], 0.00157977244817, -0.00184858078137, -0.00106615526602, 1490242580.68
0.0, 0.0, -17000, [0.6879118084907532, -0.003885295707732439, 0.021289171651005745, -0.7254716157913208], 0.000984971644357, -0.0008066999726, -0.000208824756555, 1490242580.68
0.0, 0.0, -17000, [0.6879127025604248, -0.0038889043498784304, 0.021285405382514, -0.7254709005355835], -0.000404295016779, -0.00159295648336, -0.000122115015984, 1490242580.71
0.0, 0.0, -17000, [0.6879133582115173, -0.0038879241328686476, 0.021283715963363647, -0.7254703640937805], -0.000147044062032, 9.21869650483e-05, 0.000722312019207, 1490242580.71
0.0, 0.0, -17000, [0.687914252281189, -0.00389051903039217, 0.02128666080534458, -0.7254694104194641], -0.00064634392038, -0.000114454422146, 0.000256105209701, 1490242580.72
0.0, 0.0, -17000, [0.6879175305366516, -0.003894131164997816, 0.021283594891428947, -0.7254663109779358], -0.000149677580339, -0.000984761863947, 0.000776479602791, 1490242580.74
0.0, 0.0, -17000, [0.6879212856292725, -0.003891927422955632, 0.02127990312874317, -0.7254629135131836], 0.000944996951148, 1.19502656162e-05, 0.000367074040696, 1490242580.75
0.0, 0.0, -17000, [0.687923789024353, -0.0038893113378435373, 0.021279696375131607, -0.7254605293273926], -0.000844049849547, 0.000324615510181, 4.81280731037e-05, 1490242580.76
0.0, 0.0, -17000, [0.6879245042800903, -0.003891376545652747, 0.021281691268086433, -0.7254598140716553], -0.00109686679207, -0.000809519086033, -0.00087914976757, 1490242580.78
0.0, 0.0, -17000, [0.68792724609375, -0.0039003484416753054, 0.02128390222787857, -0.7254570722579956], -0.00094754237216, -0.000409824773669, -1.86904799193e-06, 1490242580.79
0.0, 0.0, -17000, [0.6879270672798157, -0.003899920731782913, 0.021282551810145378, -0.7254573106765747], 9.821538697e-05, -0.000547731295228, 0.000282390858047, 1490242580.8
0.0, 0.0, -17000, [0.687928318977356, -0.0039015437941998243, 0.02127774804830551, -0.725456178188324], 0.000100216100691, -0.000849856063724, 0.000267392839305, 1490242580.83
0.0, 0.0, -17000, [0.687930166721344, -0.0038994308561086655, 0.021272720769047737, -0.7254546284675598], 0.00141379481647, -0.000204458832741, -0.000133417081088, 1490242580.84
0.0, 0.0, -17000, [0.6879355311393738, -0.0038963810075074434, 0.021265598013997078, -0.7254497408866882], 0.000982297118753, -0.00134023092687, 0.0013795690611, 1490242580.85
0.0, 0.0, -17000, [0.6879391074180603, -0.003898363560438156, 0.021253207698464394, -0.7254467010498047], 0.00022587843705, -0.00190911116078, 1.09880929813e-05, 1490242580.86
0.0, 0.0, -17000, [0.6879386305809021, -0.0039125289767980576, 0.02125236764550209, -0.7254471182823181], -0.000893223565072, -0.000980152748525, 0.000723643926904, 1490242580.87
0.0, 0.0, -17000, [0.687940239906311, -0.003905841615051031, 0.02125040628015995, -0.7254456281661987], 0.000401706289267, 0.00018726522103, 0.000562050961889, 1490242580.89
0.0, 0.0, -17000, [0.6879392862319946, -0.003906895872205496, 0.021252509206533432, -0.7254465818405151], -0.000926769454964, -0.000506579410285, -0.000320334453136, 1490242580.9
0.0, 0.0, -17000, [0.6879379153251648, -0.003899486269801855, 0.02124732919037342, -0.7254480123519897], 0.00140621140599, 0.000978285912424, -7.68033787608e-05, 1490242580.92
0.0, 0.0, -17000, [0.6879399418830872, -0.003900497918948531, 0.021249821409583092, -0.7254460453987122], 0.000882359570824, -0.000832783058286, -0.000205461983569, 1490242580.93
0.0, 0.0, -17000, [0.6879416704177856, -0.003900093724951148, 0.021244237199425697, -0.7254445552825928], 0.000402726524044, -0.00042305001989, 0.000413007684983, 1490242580.94
0.0, 0.0, -17000, [0.6879433989524841, -0.003900364274159074, 0.02124537155032158, -0.7254428863525391], -0.000463924661744, 0.000190412160009, 0.000709351734258, 1490242580.96
0.0, 0.0, -17000, [0.6879430413246155, -0.003900093724951148, 0.02124476619064808, -0.7254432439804077], 0.000285184301902, -0.000676455907524, -0.000787632015999, 1490242580.96
0.0, 0.0, -17000, [0.6879463195800781, -0.0039013477507978678, 0.021245233714580536, -0.7254401445388794], -0.000217247739783, -0.00113188056275, 0.00172500160988, 1490242580.97
0.0, 0.0, -17000, [0.6879511475563049, -0.003907116129994392, 0.02124515175819397, -0.7254355549812317], -0.00118476478383, -0.000197431538254, 0.000310107134283, 1490242580.99
0.0, 0.0, -17000, [0.6879556775093079, -0.003910745028406382, 0.021247534081339836, -0.7254310846328735], -0.000793266226538, 0.000543545465916, 0.000682417070493, 1490242581.0
0.0, 0.0, -17000, [0.6879582405090332, -0.003910921514034271, 0.021249348297715187, -0.725428581237793], -0.000817340333015, -0.00111759500578, -0.000352577189915, 1490242581.02
0.0, 0.0, -17000, [0.6879574656486511, -0.003911924082785845, 0.021253259852528572, -0.7254292964935303], -0.000831639044918, 0.000270246528089, -0.000179789611138, 1490242581.03
0.0, 0.0, -17000, [0.6879608035087585, -0.0039130570366978645, 0.02125522866845131, -0.7254260182380676], 3.22528358083e-05, -0.000678893644363, -0.000275665428489, 1490242581.04
0.0, 0.0, -17000, [0.6879628300666809, -0.003909949213266373, 0.02125636115670204, -0.7254241108894348], -0.000315679295454, 0.000264737987891, 6.85959821567e-05, 1490242581.06
0.0, 0.0, -17000, [0.68796706199646, -0.003910481464117765, 0.02125457301735878, -0.7254201173782349], -0.000411379238358, -0.000787516124547, -0.000100981327705, 1490242581.07
0.0, 0.0, -17000, [0.6879672408103943, -0.0039058788679540157, 0.02125612460076809, -0.7254199385643005], 0.00145129521843, -0.000652918592095, -0.000708966923412, 1490242581.08
0.0, 0.0, -17000, [0.6879687309265137, -0.0039056057576090097, 0.021251630038022995, -0.7254186272621155], 0.00080288934987, -0.000840672757477, 0.000841386499815, 1490242581.1
0.0, 0.0, -17000, [0.6879705786705017, -0.003906836733222008, 0.02125539258122444, -0.7254167795181274], -0.00113955908455, -0.000155386514962, -0.000326877110638, 1490242581.11
0.0, 0.0, -17000, [0.6879758834838867, -0.003906553145498037, 0.021252507343888283, -0.7254118323326111], 0.000663829734549, -0.000871704425663, 0.00126411626115, 1490242581.12
0.0, 0.0, -17000, [0.6879750490188599, -0.0039062434807419777, 0.021252868697047234, -0.7254126071929932], -0.0011769690318, -8.08145850897e-05, 0.000208991346881, 1490242581.13
0.0, 0.0, -17000, [0.6879757642745972, -0.003912908025085926, 0.02126081846654415, -0.7254116535186768], -0.00103707169183, 0.000791137339547, -0.000160027178936, 1490242581.15
0.0, 0.0, -17000, [0.6879738569259644, -0.003911915235221386, 0.021260222420096397, -0.72541344165802], 0.000399696495151, -0.00090107973665, -0.00239370856434, 1490242581.17
0.0, 0.0, -17000, [0.6879737973213196, -0.003909080754965544, 0.021256104111671448, -0.7254137396812439], 0.000644580635708, 0.000249596312642, 0.000139729585499, 1490242581.17
0.0, 0.0, -17000, [0.6879778504371643, -0.003908585757017136, 0.021259507164359093, -0.7254098057746887], -0.00121615920216, 0.000211254227906, 0.000756244640797, 1490242581.19
0.0, 0.0, -17000, [0.6879772543907166, -0.003910014405846596, 0.021262886002659798, -0.7254102826118469], 0.000239970657276, 0.000260672997683, -0.000203659757972, 1490242581.2
0.0, 0.0, -17000, [0.6879814863204956, -0.003908620215952396, 0.021268330514431, -0.7254060506820679], -0.000146315986058, 0.000208717072383, 0.000730579020455, 1490242581.21
0.0, 0.0, -17000, [0.6879819631576538, -0.003911398816853762, 0.02126922272145748, -0.7254056334495544], -0.00113492377568, -0.00132446037605, -0.000386373198126, 1490242581.23
0.0, 0.0, -17000, [0.6879813075065613, -0.003917311783879995, 0.02127157337963581, -0.7254061102867126], -0.000289062358206, -0.000270575750619, -0.000269408337772, 1490242581.23
0.0, 0.0, -17000, [0.6879842877388, -0.0039105466566979885, 0.02127019129693508, -0.7254032492637634], 0.00133141491096, 0.000740409828722, 0.000858043902554, 1490242581.25
0.0, 0.0, -17000, [0.6879839301109314, -0.003912406042218208, 0.02127407118678093, -0.7254034876823425], -0.000608549860772, -0.000575327314436, -0.000310689560138, 1490242581.27
0.0, 0.0, -17000, [0.687985897064209, -0.003913798835128546, 0.021280871704220772, -0.7254014015197754], -0.000332308758516, 0.000251413555816, 0.000284866895527, 1490242581.28
0.0, 0.0, -17000, [0.6879843473434448, -0.003915776498615742, 0.02128075622022152, -0.7254029512405396], -7.91434431449e-05, 6.69406726956e-05, -0.000241821166128, 1490242581.29
0.0, 0.0, -17000, [0.6879873275756836, -0.003917591646313667, 0.021283434703946114, -0.7254000306129456], -0.00102716439869, 6.16265460849e-05, 0.000578675651923, 1490242581.3
0.0, 0.0, -17000, [0.6879874467849731, -0.003917939495295286, 0.0212844330817461, -0.725399911403656], -0.000391916779336, -0.000810451805592, -0.000299247447401, 1490242581.32
0.0, 0.0, -17000, [0.6879904270172119, -0.00391695462167263, 0.021280312910676003, -0.7253971695899963], 0.000868556555361, 0.000164821278304, -6.23853411525e-05, 1490242581.33
0.0, 0.0, -17000, [0.6879909038543701, -0.003918823320418596, 0.02128363400697708, -0.7253965735435486], -0.000146100195707, -0.000198831316084, 0.00070208159741, 1490242581.34
0.0, 0.0, -17000, [0.6879929900169373, -0.003919453360140324, 0.021288147196173668, -0.7253944873809814], -0.000428309780546, 0.000258698360994, 0.000170485116541, 1490242581.36
0.0, 0.0, -17000, [0.6879956722259521, -0.003921057563275099, 0.021294696256518364, -0.7253918051719666], -0.00108315376565, 0.000236724969, 0.000441479496658, 1490242581.38
0.0, 0.0, -17000, [0.6879957318305969, -0.003917295020073652, 0.02129446715116501, -0.7253917455673218], -0.000236492007389, 0.00021900027059, 0.000511876191013, 1490242581.38
0.0, 0.0, -17000, [0.6879955530166626, -0.003921799827367067, 0.021292351186275482, -0.7253919243812561], 0.000671018962748, -0.00173954991624, -0.000280595500953, 1490242581.41
0.0, 0.0, -17000, [0.6879992485046387, -0.0039240154437720776, 0.02129344642162323, -0.7253883481025696], -0.000712075969204, 0.000176994362846, 0.00112627376802, 1490242581.41
0.0, 0.0, -17000, [0.6880021691322327, -0.0039224522188305855, 0.021295372396707535, -0.7253855466842651], 0.0002779768256, 0.000221794238314, 0.000758277135901, 1490242581.42
0.0, 0.0, -17000, [0.6880059242248535, -0.003923625685274601, 0.021299926564097404, -0.7253818511962891], -0.00116026203614, -0.00037211086601, -2.67514260486e-05, 1490242581.44
0.0, 0.0, -17000, [0.6880049705505371, -0.003924069460481405, 0.021298065781593323, -0.7253828048706055], 0.0016153822653, -0.000685438048095, -5.01199392602e-05, 1490242581.45
0.0, 0.0, -17000, [0.6880077719688416, -0.00392265897244215, 0.021299876272678375, -0.7253801226615906], -0.000404229824198, -4.220334813e-05, -0.000162673532031, 1490242581.47
0.0, 0.0, -17000, [0.6880109906196594, -0.003922884818166494, 0.021295959129929543, -0.7253771424293518], -0.000259568914771, 0.000103013124317, 0.000823223614134, 1490242581.48
0.0, 0.0, -17000, [0.6880097389221191, -0.003922323230654001, 0.021302755922079086, -0.7253782153129578], 7.08327570464e-05, 0.000532435020432, -0.000848988944199, 1490242581.49
0.0, 0.0, -17000, [0.6880084276199341, -0.003917817957699299, 0.021296806633472443, -0.7253795862197876], 0.00169475353323, 1.18906609714e-05, -0.00107814033981, 1490242581.51
0.0, 0.0, -17000, [0.6880084872245789, -0.003920973278582096, 0.021298307925462723, -0.725379467010498], 0.00101837550756, -0.000776850618422, -0.000630700320471, 1490242581.52
0.0, 0.0, -17000, [0.6880089640617371, -0.003922642674297094, 0.021302206441760063, -0.7253789305686951], -0.00320433359593, 0.000878079095855, 0.000223046867177, 1490242581.53
0.0, 0.0, -17000, [0.6880107522010803, -0.003923070151358843, 0.021306566894054413, -0.725377082824707], 0.000269631651463, -4.07192856073e-05, -0.000532099395059, 1490242581.54
0.0, 0.0, -17000, [0.6880109906196594, -0.0039175692945718765, 0.021308382973074913, -0.7253767848014832], -0.000135959329782, -2.06520780921e-06, -0.000994092319161, 1490242581.55
0.0, 0.0, -17000, [0.6880108714103699, -0.003919173963367939, 0.021302562206983566, -0.7253771424293518], 3.99841519538e-05, -0.000671960879117, -0.000270064920187, 1490242581.57
0.0, 0.0, -17000, [0.688011646270752, -0.0039128330536186695, 0.021304452791810036, -0.725376307964325], 0.00112466153223, 0.000526303658262, 0.000943840481341, 1490242581.58
0.0, 0.0, -17000, [0.6880161762237549, -0.00390969542786479, 0.021300779655575752, -0.7253722548484802], -0.000183998097782, 9.60505567491e-05, 0.00125146110076, 1490242581.59
0.0, 0.0, -17000, [0.6880242228507996, -0.003912520594894886, 0.021310804411768913, -0.7253642678260803], -0.000947142136283, -0.00078194681555, 0.00136821402702, 1490242581.61
0.0, 0.0, -17000, [0.6880245208740234, -0.003916432149708271, 0.021308736875653267, -0.7253639698028564], -0.000707710976712, -0.000892032403499, -0.00043456297135, 1490242581.62
0.0, 0.0, -17000, [0.6880265474319458, -0.003913261462002993, 0.02131270430982113, -0.7253619432449341], -0.000124637736008, 0.000663315644488, 0.000433784211054, 1490242581.63
0.0, 0.0, -17000, [0.6880291104316711, -0.003925197292119265, 0.021317526698112488, -0.7253593802452087], -0.00177224958315, -0.000798088498414, -0.000391788664274, 1490242581.65
0.0, 0.0, -17000, [0.6880267858505249, -0.003927138168364763, 0.0213176216930151, -0.7253615856170654], 0.0009922652971, -0.000343968626112, -0.000292882556096, 1490242581.66
0.0, 0.0, -17000, [0.6880244016647339, -0.003921868279576302, 0.021313991397619247, -0.7253639698028564], -0.000589772651438, -0.000264103990048, -0.000495565298479, 1490242581.68
0.0, 0.0, -17000, [0.6880272626876831, -0.003920992370694876, 0.021312255412340164, -0.7253612279891968], 0.000443582190201, -0.000614170450717, -9.49553214014e-06, 1490242581.69
0.0, 0.0, -17000, [0.6880303621292114, -0.0039218817837536335, 0.021310025826096535, -0.7253583669662476], -0.00121157011017, -2.01538205147e-05, 0.000757633359171, 1490242581.71
0.0, 0.0, -17000, [0.6880316734313965, -0.003927130717784166, 0.021309100091457367, -0.7253572344779968], -6.6006614361e-05, -0.00240512052551, -0.000353937735781, 1490242581.72
0.0, 0.0, -17000, [0.6880312561988831, -0.003936466295272112, 0.021317778155207634, -0.7253572344779968], -0.00241105281748, 0.000275346916169, -0.000391594250686, 1490242581.73
0.0, 0.0, -17000, [0.6880301833152771, -0.003936670254915953, 0.02131606824696064, -0.7253583669662476], 0.00102900550701, -0.00130868796259, -0.000755651853979, 1490242581.75
0.0, 0.0, -17000, [0.6880331635475159, -0.003932035993784666, 0.021317701786756516, -0.7253553867340088], -0.000178757007234, 0.00084906257689, 0.00118442578241, 1490242581.75
0.0, 0.0, -17000, [0.688037097454071, -0.003937412053346634, 0.021323060616850853, -0.7253515124320984], -0.00208799913526, -0.000263281166553, -0.00039127812488, 1490242581.77
0.0, 0.0, -17000, [0.6880348920822144, -0.0039390386082232, 0.021334027871489525, -0.7253533005714417], -0.00158705038484, 0.000879044178873, 2.69241863862e-05, 1490242581.79
0.0, 0.0, -17000, [0.6880382299423218, -0.0039381845854222775, 0.02132912538945675, -0.7253502607345581], 0.000658801873215, -0.000389794353396, 9.16316639632e-06, 1490242581.8
0.0, 0.0, -17000, [0.6880353093147278, -0.003934120759367943, 0.02133222110569477, -0.7253530621528625], -1.2940436136e-06, 0.000321685802191, -0.00128182140179, 1490242581.82
0.0, 0.0, -17000, [0.6880368590354919, -0.003937847912311554, 0.021326944231987, -0.7253516912460327], -0.000261564360699, -0.00123832048848, -0.000137293478474, 1490242581.82
0.0, 0.0, -17000, [0.6880406141281128, -0.003937312867492437, 0.02132609486579895, -0.7253480553627014], 0.000402704899898, -8.26795585454e-05, 0.00054171110969, 1490242581.83
0.0, 0.0, -17000, [0.6880407929420471, -0.003938593436032534, 0.021324222907423973, -0.7253479361534119], 0.000423218647484, -0.000728132668883, -0.00120461685583, 1490242581.85
0.0, 0.0, -17000, [0.6880418658256531, -0.003935107961297035, 0.021327177062630653, -0.7253469228744507], -9.15366690606e-05, 0.000257712556049, -1.04720238596e-05, 1490242581.86
0.0, 0.0, -17000, [0.688042938709259, -0.003934044856578112, 0.02132789045572281, -0.7253459095954895], -0.000711385684554, -0.000570049975067, -0.00031319342088, 1490242581.88
0.0, 0.0, -17000, [0.6880442500114441, -0.00393341388553381, 0.021327339112758636, -0.7253446578979492], 6.80574739818e-05, -0.00084912776947, 0.000696218339726, 1490242581.89
0.0, 0.0, -17000, [0.6880413293838501, -0.003937606234103441, 0.02132469415664673, -0.7253474593162537], -0.000991026638076, -0.000962649937719, -0.00088921864517, 1490242581.9
0.0, 0.0, -17000, [0.6880438327789307, -0.00393690587952733, 0.02132474258542061, -0.7253450751304626], 0.000376998475986, 0.000545440707356, 0.000891586882062, 1490242581.92
0.0, 0.0, -17000, [0.6880449056625366, -0.003930801060050726, 0.021322622895240784, -0.725344181060791], 0.00122811284382, 6.98450021446e-05, -0.000454746361356, 1490242581.93
0.0, 0.0, -17000, [0.688045859336853, -0.003935921471565962, 0.02132456749677658, -0.7253431677818298], -0.0011353562586, -0.000780846457928, -0.00035468803253, 1490242581.94
0.0, 0.0, -17000, [0.6880477666854858, -0.003939229529350996, 0.02132589742541313, -0.725341260433197], 0.000836966966745, 0.000245817471296, 0.000377295538783, 1490242581.95
0.0, 0.0, -17000, [0.6880487203598022, -0.003936145920306444, 0.02132268063724041, -0.7253404855728149], -0.000398820935516, -0.000795160420239, -0.000192178180441, 1490242581.96
0.0, 0.0, -17000, [0.6880465745925903, -0.003938356880098581, 0.021320238709449768, -0.7253426313400269], 0.00123347202316, -0.000776503235102, -0.000605783483479, 1490242581.99
0.0, 0.0, -17000, [0.6880457401275635, -0.003938409499824047, 0.021314922720193863, -0.7253435254096985], -3.2889744034e-05, -0.00078846886754, -0.000792527571321, 1490242582.0
0.0, 0.0, -17000, [0.6880474090576172, -0.003938868176192045, 0.02131580375134945, -0.7253419756889343], 0.000325139058987, -0.000169470440596, 0.000107247964479, 1490242582.01
0.0, 0.0, -17000, [0.688046932220459, -0.003941529896110296, 0.021314052864909172, -0.7253425121307373], -0.000707584957127, -0.000809677410871, -0.000313220079988, 1490242582.02
0.0, 0.0, -17000, [0.6880481839179993, -0.003936176188290119, 0.02131526544690132, -0.725341260433197], -7.69455218688e-05, 0.000586359528825, -0.000200898270123, 1490242582.03
0.0, 0.0, -17000, [0.6880497336387634, -0.003926396835595369, 0.0213069599121809, -0.7253401279449463], 0.0025669420138, -0.000160972587764, -5.26563962922e-05, 1490242582.04
0.0, 0.0, -17000, [0.688049852848053, -0.003925168886780739, 0.021306656301021576, -0.7253400087356567], 3.28892783727e-05, -0.000368369743228, -0.00024277495686, 1490242582.06
0.0, 0.0, -17000, [0.6880512833595276, -0.00392939755693078, 0.021310096606612206, -0.7253385186195374], -0.00153011281509, -0.00064056692645, 0.000701334909536, 1490242582.07
0.0, 0.0, -17000, [0.6880555152893066, -0.003937940578907728, 0.0213125329464674, -0.7253343462944031], 0.000628169509582, -0.0010480270721, 0.000407247571275, 1490242582.09
0.0, 0.0, -17000, [0.6880557537078857, -0.003935020882636309, 0.02131171151995659, -0.7253341674804688], 0.00104312354233, -0.000763839110732, -0.000935953808948, 1490242582.1
0.0, 0.0, -17000, [0.6880539059638977, -0.003936104942113161, 0.021312439814209938, -0.7253358960151672], -0.000133301917231, 0.00030274852179, -0.000865748850629, 1490242582.11
0.0, 0.0, -17000, [0.6880538463592529, -0.003936861641705036, 0.021313121542334557, -0.7253358960151672], 0.000526042073034, -7.44359567761e-05, 0.000343540683389, 1490242582.13
0.0, 0.0, -17000, [0.6880568265914917, -0.003938937559723854, 0.021320151165127754, -0.7253329157829285], -0.00116368778981, -0.00071424851194, 8.42259032652e-05, 1490242582.14
0.0, 0.0, -17000, [0.6880588531494141, -0.003941730596125126, 0.021323245018720627, -0.7253308296203613], -0.000568829826079, -9.98596660793e-05, 0.000691481516697, 1490242582.16
0.0, 0.0, -17000, [0.6880558729171753, -0.003944976255297661, 0.02132730558514595, -0.725333571434021], -0.00162315543275, 0.000306979520246, -0.00096805265639, 1490242582.17
0.0, 0.0, -17000, [0.6880565285682678, -0.0039416225627064705, 0.021325236186385155, -0.7253329753875732], 0.000459922710434, -0.000486674252898, -0.000212849467061, 1490242582.18
0.0, 0.0, -17000, [0.6880550384521484, -0.003949486650526524, 0.021322544664144516, -0.7253345251083374], -0.00134576030541, -0.00100062275305, -0.000376398675144, 1490242582.2
0.0, 0.0, -17000, [0.6880580186843872, -0.003946490120142698, 0.021325858309864998, -0.7253316044807434], -7.09271698724e-05, 0.00102050183341, -0.000284570618533, 1490242582.21
0.0, 0.0, -17000, [0.6880586743354797, -0.003939371556043625, 0.02132292278110981, -0.7253310084342957], 0.00183646078221, 0.00025367224589, -7.48685561121e-05, 1490242582.23
0.0, 0.0, -17000, [0.688059389591217, -0.003933234140276909, 0.021320853382349014, -0.7253304719924927], 0.00104646140244, 3.69874760509e-05, 0.000485799158923, 1490242582.24
0.0, 0.0, -17000, [0.6880608201026917, -0.003929621540009975, 0.02132118120789528, -0.7253291606903076], -0.000453821732663, 0.000703308731318, -0.000852640136145, 1490242582.25
0.0, 0.0, -17000, [0.6880613565444946, -0.003928002435714006, 0.021327923983335495, -0.7253283858299255], -2.23661772907e-05, -0.000729319173843, 0.00047775474377, 1490242582.26
0.0, 0.0, -17000, [0.688060998916626, -0.003935238812118769, 0.02133473940193653, -0.7253285646438599], -0.00153018720448, -0.000129424035549, -0.000768275000155, 1490242582.27
0.0, 0.0, -17000, [0.6880624890327454, -0.003934244625270367, 0.021340837702155113, -0.7253269553184509], -0.00121402484365, 0.000542439287528, 0.000784457894042, 1490242582.28
0.0, 0.0, -17000, [0.6880666017532349, -0.003933273255825043, 0.021341031417250633, -0.7253230214118958], -0.000408104853705, 0.000263437861577, -0.000133706489578, 1490242582.3
0.0, 0.0, -17000, [0.6880657076835632, -0.003927977290004492, 0.021344080567359924, -0.7253238558769226], -0.000607848691288, -0.000683102756739, -0.000304387765937, 1490242582.31
0.0, 0.0, -17000, [0.688065230846405, -0.003930744249373674, 0.021347584202885628, -0.7253242135047913], -0.00113336532377, -0.000788410194218, -0.000347236986272, 1490242582.32
0.0, 0.0, -17000, [0.6880693435668945, -0.0039346241392195225, 0.021348483860492706, -0.7253202795982361], -0.000257466221228, 0.000211348757148, 0.000838235137053, 1490242582.33
0.0, 0.0, -17000, [0.6880730390548706, -0.003940947819501162, 0.02135639451444149, -0.7253164649009705], -0.00208782171831, -0.000796931330115, -0.000412335037254, 1490242582.35
0.0, 0.0, -17000, [0.6880754828453064, -0.003950313199311495, 0.021361062303185463, -0.7253139615058899], -0.00174735102337, -0.00107397418469, 0.000773582141846, 1490242582.37
0.0, 0.0, -17000, [0.688075065612793, -0.003953989595174789, 0.021359646692872047, -0.7253143191337585], 0.000353300478309, -0.000486131757498, -0.000219304347411, 1490242582.37
0.0, 0.0, -17000, [0.688075840473175, -0.003953950479626656, 0.02136385627090931, -0.7253134846687317], 0.00049820280401, 0.000276592094451, -0.00069757172605, 1490242582.39
0.0, 0.0, -17000, [0.6880753636360168, -0.003957013133913279, 0.021363606676459312, -0.7253139019012451], -0.000301046762615, -0.000860725063831, 4.96064312756e-05, 1490242582.41
0.0, 0.0, -17000, [0.6880760788917542, -0.003959347493946552, 0.021361522376537323, -0.7253133058547974], 0.00012037664419, -0.000625556334853, 8.38651321828e-05, 1490242582.43
0.0, 0.0, -17000, [0.688075602054596, -0.003960246220231056, 0.02135859802365303, -0.7253137826919556], -0.000333180418238, -0.000265337526798, -0.00099050370045, 1490242582.44
0.0, 0.0, -17000, [0.6880770325660706, -0.00396684929728508, 0.021357163786888123, -0.7253125309944153], -0.00139093375765, 2.51922756433e-06, 0.000326286070049, 1490242582.45
0.0, 0.0, -17000, [0.6880784630775452, -0.0039661661721765995, 0.0213595200330019, -0.7253111004829407], 5.0154310884e-05, 0.000269720563665, -0.000515927851666, 1490242582.45
0.0, 0.0, -17000, [0.6880782246589661, -0.00396017637103796, 0.021358225494623184, -0.7253113985061646], 0.000635489588603, 0.000195946777239, 0.000376926036552, 1490242582.48
0.0, 0.0, -17000, [0.6880786418914795, -0.003962257876992226, 0.021355705335736275, -0.7253110408782959], 0.000775124528445, -0.00082283699885, -9.09588998184e-05, 1490242582.49
0.0, 0.0, -17000, [0.6880843639373779, -0.003961783368140459, 0.021345293149352074, -0.72530597448349], 0.000823974842206, -0.00172435585409, 0.000721295946278, 1490242582.49
0.0, 0.0, -17000, [0.6880871653556824, -0.003964227624237537, 0.021340349689126015, -0.7253034114837646], 0.00166337471455, -0.00141090201214, 0.000902844243683, 1490242582.5
0.0, 0.0, -17000, [0.6880908012390137, -0.003967413678765297, 0.021333197131752968, -0.7253001928329468], 0.000440526695456, -0.00115469191223, 7.86574091762e-05, 1490242582.52
0.0, 0.0, -17000, [0.6880914568901062, -0.0039725773967802525, 0.02133539319038391, -0.7252994179725647], -0.000683570571709, -0.000396945979446, -0.000276846345514, 1490242582.54
0.0, 0.0, -17000, [0.6880901455879211, -0.003975251689553261, 0.021344903856515884, -0.7253003120422363], -0.000813134829514, -0.000391059555113, -0.000294248573482, 1490242582.55
0.0, 0.0, -17000, [0.6880916357040405, -0.003980901092290878, 0.021351512521505356, -0.7252987623214722], -0.00120367738418, -0.00119347916916, 0.000707978964783, 1490242582.56
0.0, 0.0, -17000, [0.688091516494751, -0.003983817528933287, 0.021348174661397934, -0.7252988815307617], 0.000547498930246, -0.00115530146286, 8.68560746312e-05, 1490242582.57
0.0, 0.0, -17000, [0.688090980052948, -0.003985867835581303, 0.021342895925045013, -0.725299596786499], 0.00038843479706, -0.000882310792804, 0.000840602559038, 1490242582.58
0.0, 0.0, -17000, [0.6880934238433838, -0.003987154923379421, 0.021346518769860268, -0.725297212600708], -0.00104806711897, 0.000219024717808, 4.05381433666e-05, 1490242582.6
0.0, 0.0, -17000, [0.6880934238433838, -0.003986712545156479, 0.021349791437387466, -0.7252970337867737], -9.99125768431e-05, 0.000205577583984, 0.000218604458496, 1490242582.61
